City_ID,City,Country,Max Temp,Current Description,Lat,Lng,Hotel Name
0,Kapaa,US,70.2,few clouds,22.0752,-159.319,Sheraton Kauai Coconut Beach Resort
4,Rikitea,PF,79.16,light rain,-23.1203,-134.9692,People ThankYou
5,Cape Town,ZA,70.11,clear sky,-33.9258,18.4232,"Radisson Blu Hotel Waterfront, Cape Town"
6,Anori,BR,88.3,broken clouds,-3.7728,-61.6442,Novo Hotel 5 Irmãos
7,Hobyo,SO,80.73,clear sky,5.3505,48.5268,Iftin hotel hobyo
15,Butaritari,KI,80.13,overcast clouds,3.0707,172.7902,Isles Sunset Lodge
19,Arusha,TZ,76.26,broken clouds,-3.3667,36.6833,Graceland Hotel
23,Souillac,MU,80.98,scattered clouds,-20.5167,57.5167,Shanti Maurice Resort & Spa
28,Breves,BR,82.2,overcast clouds,-1.6822,-50.4803,Hotel e Restaurante Grill
33,Faanui,PF,81.86,broken clouds,-16.4833,-151.75,Bora-Bora Pearl Beach Resort & Spa
34,Saldanha,ZA,73.45,overcast clouds,-33.0117,17.9442,Blue Bay Lodge
35,Atuona,PF,78.6,light rain,-9.8,-139.0333,Villa Enata
36,Vaini,TO,73.56,few clouds,-21.2,-175.2,Keleti Beach Resort
38,Geraldton,AU,73.81,scattered clouds,-28.7667,114.6,Broadwater Mariner Resort
44,Sheopur,IN,82.0,clear sky,25.6667,76.7,Shri Ram Dharmshala
47,Grand Gaube,MU,81.37,clear sky,-20.0064,57.6608,Veranda Paul et Virginie Hotel & Spa
50,Mwingi,KE,77.41,broken clouds,-0.9344,38.0601,Thorn Tree by The Address
51,Tocopilla,CL,73.56,few clouds,-22.092,-70.1979,Hotel Galvarino
52,Mora,CM,88.07,broken clouds,11.0461,14.1401,Hotel Emergence
57,Vao,NC,76.19,broken clouds,-22.6667,167.4833,Hotel Kou-Bugny
59,Kapoeta,SS,88.79,broken clouds,4.7717,33.5903,Eastgate Hotel
60,Nelson Bay,AU,72.0,light rain,-32.7167,152.15,Mantra Nelson Bay
62,Ilebo,CD,78.24,overcast clouds,-4.3167,20.5833,Hôtel BUMAK
73,Kigoma,TZ,76.69,scattered clouds,-4.8769,29.6267,MJI Mwema Lodge
75,Mecca,SA,70.92,clear sky,21.4267,39.8261,"Makkah Clock Royal Tower, A Fairmont Hotel"
78,Namatanai,PG,79.07,overcast clouds,-3.6667,152.4333,Seagulls Inn Namatani
79,Omboue,GA,79.56,light rain,-1.5746,9.2618,Hotel Olako
85,Palembang,ID,78.89,few clouds,-2.9167,104.7458,ASTON Palembang Hotel & Conference Center
86,Saint-Philippe,RE,80.19,scattered clouds,-21.3585,55.7679,"Chambres d'hôte ""La Trinité"""
88,Payson,US,71.26,scattered clouds,40.0444,-111.7321,Quality Inn Payson I-15
90,Bambanglipuro,ID,74.43,overcast clouds,-7.95,110.2833,Puri Brata
92,Dingle,PH,77.36,broken clouds,10.9995,122.6711,SEGAYA PROPERTY
94,Buala,SB,78.06,light rain,-8.145,159.5921,Maringe Lagoon Lodge
96,Hilo,US,72.25,light rain,19.7297,-155.09,Hilo Hawaiian Hotel
97,Abut,PH,74.98,broken clouds,17.3523,121.6036,Cinderella Resort
98,Avarua,CK,75.25,moderate rain,-21.2078,-159.775,Paradise Inn
99,Puerto Ayora,EC,82.36,light rain,-0.7393,-90.3518,Finch Bay Galapagos Hotel
106,Banda Aceh,ID,80.55,scattered clouds,5.5577,95.3222,OYO 884 Rumoh PMI Hotel
110,Pisco,PE,75.02,clear sky,-13.7,-76.2167,Hotel San Isidro Oficial
112,San Policarpo,PH,79.56,overcast clouds,12.1791,125.5072,Agapita M. Nicart
118,Bengkulu,ID,77.67,overcast clouds,-3.8004,102.2655,Grage Hotel Bengkulu
121,Wahiawa,US,70.38,broken clouds,21.5028,-158.0236,The Inn At Schofield
123,Hithadhoo,MV,83.61,clear sky,-0.6,73.0833,Scoop Guest House
124,Dicabisagan,PH,78.19,clear sky,17.0818,122.4157,Nancy Montanes Bernardo
127,Bambous Virieux,MU,81.21,scattered clouds,-20.3428,57.7575,Casa Tia Villa
131,Maxixe,MZ,71.76,overcast clouds,-23.8597,35.3472,Oceano
133,Coahuayana,MX,89.82,broken clouds,18.7333,-103.6833,El rranchito michuacan de ocampos
134,Diffa,NE,83.61,scattered clouds,13.3154,12.6113,ProDAF/Diffa
137,Hambantota,LK,78.66,clear sky,6.1241,81.1185,Bungalow 63
138,Playa Vicente,MX,82.49,overcast clouds,17.8333,-95.8167,"Hotel ""Imperio"""
141,Cidreira,BR,72.12,broken clouds,-30.1811,-50.2056,Hotel Castelo
145,Cabo San Lucas,MX,83.61,overcast clouds,22.8909,-109.9124,Hotel Tesoro Los Cabos
147,Kailua,US,73.65,overcast clouds,21.4022,-157.7394,Sheffield House Bed & Breakfast
148,Tecpatan,MX,70.63,overcast clouds,17.1333,-93.3,Casa San Miguel
159,Hastinapur,IN,75.07,clear sky,29.1667,78.0167,Sangvi Doshi jain New Dharmshala Hastinapur
161,Tutoia,BR,82.96,overcast clouds,-2.7619,-42.2744,Pousada Guará's
162,Castro,BR,73.36,overcast clouds,-24.7911,-50.0119,CHACARA BAILLY
164,Bintulu,MY,75.61,few clouds,3.1667,113.0333,900 Boutique INN
165,Miracema Do Tocantins,BR,85.77,few clouds,-9.5618,-48.3967,Miami Apart Hotel
169,Saint-Pierre,RE,79.29,broken clouds,-21.3393,55.4781,Lindsey Hôtel
170,Waingapu,ID,77.36,broken clouds,-9.6567,120.2641,Pondok Wisata Elim
171,Saraland,US,74.08,clear sky,30.8207,-88.0706,Microtel Inn & Suites by Wyndham Saraland/North Mobile
178,Kahului,US,71.83,scattered clouds,20.8947,-156.47,Maui Seaside Hotel
180,Caldas,CO,78.4,broken clouds,6.0911,-75.6357,Hotel Plaza Garibaldi
181,Ranong,TH,78.8,clear sky,9.9658,98.6348,Tinidee Hotel@Ranong
187,Pauini,BR,84.15,overcast clouds,-7.7136,-66.9764,Casa do Kiwliks
190,Georgetown,MY,84.13,moderate rain,5.4112,100.3354,Cititel Penang
191,Dangriga,BZ,74.41,overcast clouds,16.9692,-88.2321,Chaleanor Hotel
196,Acapulco,MX,86.22,overcast clouds,16.8634,-99.8901,HS Hotsson Smart Acapulco
198,Alyangula,AU,73.27,overcast clouds,-13.8483,136.4192,Groote Eylandt Lodge
202,Kralendijk,BQ,85.98,scattered clouds,12.15,-68.2667,Divi Flamingo Beach Resort & Casino
205,Honiara,SB,75.72,light rain,-9.4333,159.95,Heritage Park Hotel
207,Carnarvon,AU,77.07,broken clouds,-24.8667,113.6333,Hospitality Carnarvon
211,Gorontalo,ID,74.62,overcast clouds,0.5412,123.0595,Maqna Hotel by Prasanthi
212,Kavaratti,IN,82.51,clear sky,10.5669,72.642,Hotels in Lakshadweep Islands
213,Ormara,PK,77.95,clear sky,25.2088,64.6357,Kenara Colony house for Rent
214,Kota Kinabalu,MY,80.58,few clouds,5.9749,116.0724,Gaya Centre Hotel
217,Prabumulih,ID,74.25,few clouds,-3.45,104.25,OYO 2722 Lemon Residence Prabumulih
220,Saint George,US,74.43,clear sky,37.1041,-113.5841,Best Western Plus Abbey Inn
222,Lorengau,PG,81.1,overcast clouds,-2.0226,147.2712,Lorengau Harbourside Hotel
225,Kalemie,CD,73.89,scattered clouds,-5.9475,29.1947,Mahobilali
226,Mapiripan,CO,80.85,overcast clouds,2.8892,-72.1256,Monserrate
228,Acarau,BR,83.84,overcast clouds,-2.8856,-40.12,castelo pizzaria
229,Oistins,BB,84.29,scattered clouds,13.0667,-59.5333,Butterfly Beach Hotel
231,Meulaboh,ID,78.66,broken clouds,4.1363,96.1285,Kost Pria
232,Mahebourg,MU,80.89,scattered clouds,-20.4081,57.7,Shandrani Beachcomber Resort & Spa
234,Vallenar,CL,83.98,clear sky,-28.5708,-70.7581,Humacao Bed & Breakfast
236,Kavieng,PG,81.25,light rain,-2.5744,150.7967,Nusa Island Retreat
238,Salalah,OM,77.58,clear sky,17.0151,54.0924,"HAMDAN PLAZA HOTEL SALALAH, an HTG Hotel"
239,Manggar,ID,78.71,scattered clouds,-2.8833,108.2667,Guest Hotel
241,Morgan City,US,78.01,clear sky,29.6994,-91.2068,Hampton Inn & Suites Morgan City
247,Biak,ID,75.6,broken clouds,-0.9131,122.8766,Penginapan Kim
249,Am Timan,TD,89.73,scattered clouds,11.0297,20.2827,Palais du chef Canton Salamt
250,Bolobo,CD,78.4,light rain,-2.1667,16.2333,Hotel de Stephen
251,Foumban,CM,83.91,broken clouds,5.7291,10.9001,Hotel Pekassa De Karche
253,Richards Bay,ZA,70.32,overcast clouds,-28.783,32.0377,BON Hotel Waterfront Richards Bay
258,Qui Nhon,VN,78.53,few clouds,13.7667,109.2333,Khách sạn Hải Âu Quy Nhơn - Seagull Hotel
260,Amahai,ID,77.54,overcast clouds,-3.3333,128.9167,HOTEL ISABELA
261,Tripoli,LY,72.23,scattered clouds,32.8752,13.1875,Al Waddan Hotel
265,Viedma,AR,74.44,scattered clouds,-40.8135,-62.9967,Hotel Cristal
269,Chalinze,TZ,78.93,broken clouds,-6.6378,38.354,Dolphin Guesthouse
270,Lima,PE,73.65,clear sky,-12.0432,-77.0282,Hotel Kamana
272,Cayenne,GF,84.24,overcast clouds,4.9333,-52.3333,Hôtel Le Dronmi
273,Alenquer,BR,84.81,broken clouds,-1.9417,-54.7383,Detinha Hotel
275,Inirida,CO,76.35,overcast clouds,3.8653,-67.9239,Fuente del Guania Hotel de Lujo
277,La Reforma,MX,79.56,overcast clouds,25.0833,-108.05,Hotel Reforma
281,Cabinda,AO,86.14,few clouds,-5.55,12.2,Hotel Maiombe
282,Touros,BR,84.42,overcast clouds,-5.1989,-35.4608,INN NEW HORIZON
284,Maningrida,AU,74.79,overcast clouds,-12.0667,134.2667,Dhukurrdji Lodge
292,Jieshi,CN,71.94,broken clouds,22.8134,115.8257,Yuehai Hotel
293,Bull Savanna,JM,81.5,scattered clouds,17.8868,-77.5902,Big Red's
296,Mogadishu,SO,82.17,broken clouds,2.0371,45.3438,Hotel Juba
298,Trincomalee,LK,80.55,clear sky,8.5711,81.2335,Welcombe Hotel
300,San Cristobal,VE,78.98,broken clouds,7.7669,-72.225,Pirineos
306,Quatre Cocos,MU,80.71,light rain,-20.2078,57.7625,Sunrise Attitude Hotel
308,Yeppoon,AU,71.38,overcast clouds,-23.1333,150.7333,Villa Mar Colina
312,Ampanihy,MG,71.96,scattered clouds,-24.7,44.75,Angora Hotel
313,Daru,PG,77.86,moderate rain,-9.0763,143.2092,Daru Lodge
317,Angra Dos Reis,BR,84.16,scattered clouds,-23.0067,-44.3181,Mercure Angra dos Reis
325,Nouakchott,MR,73.33,scattered clouds,18.0858,-15.9785,HOTEL IMAN
326,Manokwari,ID,78.1,overcast clouds,-0.8667,134.0833,Swiss Belhotel Manokwari
327,General Pico,AR,74.95,clear sky,-35.6566,-63.7568,Euskadi Hotel
328,Port Antonio,JM,86.0,broken clouds,18.18,-76.4612,The Trident Hotel
334,Eten,PE,77.25,clear sky,-6.9081,-79.8642,Hospedaje Sol Radiante
335,Felipe Carrillo Puerto,MX,85.98,broken clouds,19.5833,-88.05,Hotel La Ceiba
338,Galveston,US,82.09,clear sky,29.3669,-94.9669,Crystal Suites
342,Bathsheba,BB,84.81,scattered clouds,13.2167,-59.5167,Atlantis Hotel
343,Port Blair,IN,80.64,mist,11.6667,92.75,"Welcomhotel By ITC Hotels, Bay Island, Port Blair"
346,Zhuhai,CN,73.11,scattered clouds,22.2769,113.5678,珠海粤财假日酒店
348,Pangkalanbuun,ID,74.53,scattered clouds,-2.6833,111.6167,Grand Kecubung Hotel
349,Padang,ID,75.13,clear sky,-0.9492,100.3543,Mercure Padang
350,Sambava,MG,79.39,few clouds,-14.2667,50.1667,Melrose
357,Saint-Georges,GD,83.88,few clouds,12.0564,-61.7485,Radisson Grenada Beach Resort
365,Amuntai,ID,74.26,light rain,-2.4177,115.2494,Hotel Balqis
368,Caraballeda,VE,86.07,few clouds,10.6112,-66.8522,Hotel 15 Letras
370,Carutapera,BR,82.47,overcast clouds,-1.195,-46.02,Lidera
371,Mocuba,MZ,74.75,scattered clouds,-16.8392,36.9856,Phama Lodge
373,Guayata,CO,74.82,overcast clouds,4.9642,-73.4875,Hotel Roca Center
374,Santa Maria Ixhuatan,GT,83.21,broken clouds,14.19,-90.2747,Dayner chaves
380,Camocim,BR,81.97,overcast clouds,-2.9022,-40.8411,Ilha Praia Hotel
386,Neiafu,TO,75.88,broken clouds,-18.65,-173.9833,Mystic Sands Beachfront Accommodation
389,Victoria,HK,78.94,scattered clouds,22.2855,114.1577,Mini Hotel Central
393,Sao Jose Da Coroa Grande,BR,81.55,overcast clouds,-8.8978,-35.1478,Crôa Mares Hotel
396,Laguna,US,73.31,few clouds,38.421,-121.4238,"Holiday Inn Express & Suites Elk Grove Central - Hwy 99, an IHG Hotel"
397,Cabedelo,BR,79.47,broken clouds,-6.9811,-34.8339,Hotel Pigalle
399,Pundaguitan,PH,78.1,overcast clouds,6.3711,126.1689,Leonardo Family Beach House 1
400,Sao Filipe,CV,70.45,broken clouds,14.8961,-24.4956,Hotel Xaguate
405,Iracoubo,GF,80.96,overcast clouds,5.4802,-53.2011,Le Gîte d’Iracoubo
408,Morant Bay,JM,85.71,broken clouds,17.8815,-76.4093,Whispering Bamboo Cove Resort
411,Eyl,SO,78.39,clear sky,7.9803,49.8164,Amiin Hotel
412,Menongue,AO,70.79,overcast clouds,-14.6585,17.691,Ritz Lauca
416,Axim,GH,82.08,light rain,4.8699,-2.2405,Axim Beach Resort And Spa
418,Kawalu,ID,72.7,overcast clouds,-7.3817,108.2082,West Jontor
421,Luziania,BR,88.99,overcast clouds,-16.2525,-47.9503,HOTEL SARON
430,Manavalakurichi,IN,79.77,scattered clouds,8.1333,77.3,Jebinrio home
433,Rio Grande,BR,77.11,broken clouds,-32.035,-52.0986,Hotel Atlântico Rio Grande
434,Moron,AR,73.09,overcast clouds,-34.6534,-58.6198,Hotel Morón
438,Stephenville,US,83.16,clear sky,32.2207,-98.2023,La Quinta Inn & Suites by Wyndham Stephenville
439,Imbituba,BR,74.79,few clouds,-28.24,-48.6703,Praia Hotel Imbituba
440,Bairiki,KI,80.6,few clouds,1.3292,172.9752,Tarawa Boutique Hotel
441,Humberto De Campos,BR,85.03,broken clouds,-2.5983,-43.4611,Pousada do Cabeça
442,Porto Nacional,BR,86.0,few clouds,-10.7081,-48.4172,Vila Real Hotel
443,Kulhudhuffushi,MV,82.13,clear sky,6.6221,73.07,Haajy Guest House 1
444,Pontianak,ID,76.98,overcast clouds,-0.0333,109.3333,Aston Pontianak Hotel & Convention Center
445,Perbaungan,ID,78.91,broken clouds,3.5679,98.956,Bendang Lama
446,Garowe,SO,76.26,scattered clouds,8.4054,48.4845,Curubo Hotel
447,Bubaque,GW,77.7,clear sky,11.2833,-15.8333,"Casa Dora, Bubaque"
449,Muisne,EC,78.28,overcast clouds,0.6,-80.0333,Quinta Samay
452,Deogarh,IN,80.17,scattered clouds,21.5333,84.7333,Amit Henej House
453,Maceio,BR,85.44,broken clouds,-9.6658,-35.7353,Hotel Ponta Verde Maceió
454,Mataram,ID,77.81,broken clouds,-8.5833,116.1167,Hotel Santika Mataram
455,Labuan,MY,80.96,scattered clouds,5.2767,115.2417,Tiara Labuan Hotel
457,Isla Vista,US,80.29,overcast clouds,34.4133,-119.861,Best Western Plus South Coast Inn
459,Talisayan,PH,79.23,overcast clouds,6.9872,121.9272,Mar y Monte Resort
464,Bilma,NE,81.86,overcast clouds,18.6853,12.9164,Expeditions Ténére voyages
469,Namibe,AO,73.65,few clouds,-15.1961,12.1522,Hotel Chik Chik Namibe
471,Gigmoto,PH,78.73,broken clouds,13.7796,124.39,Cj's Travellers Inn
473,Celestun,MX,76.03,scattered clouds,20.8667,-90.4,Posada Lilia
475,Karwar,IN,80.51,broken clouds,14.8,74.1333,Netalco Connects
476,Boa Vista,BR,89.58,broken clouds,2.8197,-60.6733,Aipana Plaza Hotel
477,Ishigaki,JP,71.73,mist,24.3448,124.1572,Hotel Peace Land Ishigakijima
484,Mitsamiouli,KM,80.89,few clouds,-11.3847,43.2844,Foyer ADM
487,Garissa,KE,87.91,light rain,-0.4536,39.6401,Sharif Plaza Hotel
490,Tautira,PF,81.07,light rain,-17.7333,-149.15,Pension Oaoa
492,San Buenaventura,MX,84.99,clear sky,27.0833,-101.5333,Hotel Gran Plaza
495,Moindou,NC,74.21,broken clouds,-21.6924,165.677,Equi-lodge de Moindou
497,Hecelchakan,MX,81.73,scattered clouds,20.1667,-90.1333,Hotel Amparito
498,Marang,MY,80.51,clear sky,5.2056,103.2059,DBarakah Homestay
501,Pesqueira,BR,84.22,overcast clouds,-8.3578,-36.6964,Pousada do João
502,Soyo,AO,80.55,light rain,-6.1349,12.3689,Hotel Mpampa
503,Barquisimeto,VE,89.37,broken clouds,10.0739,-69.3228,Hotel Príncipe
505,Mae Hong Son,TH,75.42,clear sky,19.3003,97.9685,Baiyoke Chalet Hotel
506,Laredo,US,87.78,clear sky,27.5064,-99.5075,La Quinta Inn by Wyndham Laredo I-35
507,Nhulunbuy,AU,77.61,overcast clouds,-12.2333,136.7667,East Arnhem Real Estate
508,Macas,EC,71.35,moderate rain,-2.3167,-78.1167,Casa Upano
510,Inhambane,MZ,75.18,broken clouds,-23.865,35.3833,Oceano
512,Harper,LR,82.92,overcast clouds,4.375,-7.7169,Screensaver
513,Manado,ID,74.17,few clouds,1.487,124.8455,Aryaduta Hotel
514,Luanda,AO,78.8,broken clouds,-8.8368,13.2343,EPIC SANA Luanda
515,Sorong,ID,78.89,broken clouds,-0.8833,131.25,Waigo Splash Hotel
517,Kikwit,CD,79.63,overcast clouds,-5.041,18.8162,HOTEL PLACE YALABA
524,Mackay,AU,74.68,light rain,-21.15,149.2,International Lodge Motel
526,Tecoanapa,MX,84.76,overcast clouds,16.5167,-98.75,Hotel Manglares
529,Porto Novo,BJ,84.34,scattered clouds,6.4965,2.6036,Tour Eiffel Hotel Benin
533,Grand-Bourg,GP,84.15,overcast clouds,15.8835,-61.3148,Coco Beach Resort
535,Manaure,CO,85.48,overcast clouds,11.7751,-72.4445,Hotel Palaaima
536,Pata,PH,75.6,overcast clouds,17.7152,121.5018,Israel Bakeshop
538,Ngaoundere,CM,79.7,broken clouds,7.3167,13.5833,Hotel Mentong Palace
539,Bodden Town,KY,82.99,broken clouds,19.2833,-81.25,Will T Place
540,Isangel,VU,76.68,broken clouds,-19.55,169.2667,Tanna Lodge
541,Farafangana,MG,77.27,moderate rain,-22.8167,47.8333,Miarina
548,Baindur,IN,80.91,scattered clouds,13.8667,74.6333,Sai Vishram Beach Resort (Pure Veg and No Alcohol)
549,Aswan,EG,72.7,clear sky,24.0934,32.907,Nuba Nile
553,Tual,ID,81.72,light rain,-5.6667,132.75,Grand Vilia Hotel
558,Littleton,US,74.88,scattered clouds,39.6133,-105.0166,InTown Suites Extended Stay Denver CO - Englewood
560,Cotonou,BJ,84.49,broken clouds,6.3654,2.4183,Novotel Cotonou Orisha
562,Caravelas,BR,85.51,broken clouds,-17.7125,-39.2481,Pousada dos Navegantes
566,Nanakuli,US,75.04,broken clouds,21.3906,-158.1547,Camp Pālehua
569,Santa Marta,CO,89.65,few clouds,11.2408,-74.199,Hotel La Ballena Azul
571,Esmeralda,CU,76.78,broken clouds,21.8525,-78.1169,Centro de Pioneros Exploradores
573,Comodoro Rivadavia,AR,73.36,clear sky,-45.8667,-67.5,Austral Hotel
574,Denpasar,ID,78.46,broken clouds,-8.65,115.2167,OYO 3156 Hotel Warta 2
576,Zuwarah,LY,77.47,broken clouds,32.9312,12.082,تيدارت انغ
578,Ihosy,MG,71.94,broken clouds,-22.4,46.1167,Hotely Sariaka
580,Chabahar,IR,78.82,clear sky,25.2919,60.643,هتل گدروشیا
582,Inhumas,BR,84.7,few clouds,-16.3578,-49.4961,Hotel Classic
583,Karratha,AU,83.84,broken clouds,-20.7377,116.8463,ibis Styles Karratha
584,Limon,CR,82.69,overcast clouds,10.0,-83.0333,Hotel Playa Bonita
587,Bequimao,BR,86.74,light rain,-2.4489,-44.7825,Casa Dom Joaquim
589,Madingou,CG,80.04,overcast clouds,-4.1536,13.55,HOTEL KIM ELISA
594,Mahajanga,MG,82.56,broken clouds,-15.7167,46.3167,Restaurant Greedy Coco Lodge Majunga
597,Pringsewu,ID,75.04,overcast clouds,-5.3582,104.9744,Urban Style by Front One
599,Sao Joao Da Barra,BR,82.36,broken clouds,-21.6403,-41.0511,Pousada Porto De Canoas
604,La Romana,DO,82.83,broken clouds,18.4273,-68.9728,Casa de Campo Resort and Villas
607,Tinaquillo,VE,87.87,broken clouds,9.9186,-68.3047,Hotel Los Copihues
609,Haimen,CN,72.12,broken clouds,23.1935,116.6142,Jinghao Business Hotel
613,Puerto Madryn,AR,77.5,scattered clouds,-42.7692,-65.0385,Hotel Tolosa
616,Kirakira,SB,79.52,light rain,-10.4544,161.9205,SanBiz Lodge
621,Mayumba,GA,79.48,broken clouds,-3.432,10.6554,LIKWALE LODGE
626,Sur,OM,82.99,clear sky,22.5667,59.5289,Sur Plaza Hotel
627,The Valley,AI,83.1,scattered clouds,18.217,-63.0578,CeBlue Villas & Beach Resort
629,Boyolangu,ID,74.23,overcast clouds,-8.1181,111.8935,Yos ega cv
630,Conde,BR,82.0,overcast clouds,-7.2597,-34.9075,Pousada Beija Flor
632,Vangaindrano,MG,75.78,light rain,-23.35,47.6,Hotel Fanilo
635,Sabratah,LY,78.98,broken clouds,32.7933,12.4885,شقق مفروش شمس الاصيل
636,Alofi,NU,80.06,moderate rain,-19.0595,-169.9187,Taloa Heights
637,Antofagasta,CL,71.01,clear sky,-23.65,-70.4,"Holiday Inn Express Antofagasta, an IHG Hotel"
638,Santa Isabel Do Rio Negro,BR,83.03,overcast clouds,-0.4139,-65.0192,Hotel GSA
640,Benguela,AO,78.55,overcast clouds,-12.5763,13.4055,Hotel Praia Morena
644,Luwuk,ID,77.04,overcast clouds,-0.9516,122.7875,Hotel Santika Luwuk
646,Pandan,PH,79.02,broken clouds,14.0453,124.1694,Bonifacio Lodge
648,Macapa,BR,89.58,broken clouds,0.0389,-51.0664,Atalanta Hotel
649,Begowala,PK,70.81,clear sky,32.4376,74.2682,Masjid habib ullah
650,Sechura,PE,77.72,overcast clouds,-5.5569,-80.8222,Hospedaje Costa Bella
653,Lumphat,KH,78.58,clear sky,13.4878,106.9816,Lumphat Homestay​ &​lake​side
655,Proddatur,IN,85.39,scattered clouds,14.7333,78.55,Sri Swasthik Residency
662,Ugoofaaru,MV,82.15,clear sky,5.6667,73.0,Ungoofaaru Inn
665,Teahupoo,PF,76.96,overcast clouds,-17.8333,-149.2667,Vanira Lodge
666,Rancho Palos Verdes,US,74.05,mist,33.7445,-118.387,Terranea Resort
668,Vazante,BR,86.45,overcast clouds,-17.9869,-46.9078,Hotel Pousada e Restaurante
671,Loandjili,CG,80.15,broken clouds,-4.7561,11.8578,Résidence ARCHANGE
672,Farmington,US,71.2,clear sky,36.7281,-108.2187,Courtyard by Marriott Farmington
674,Port-Gentil,GA,81.93,overcast clouds,-0.7193,8.7815,Fengshui Residence
676,Mesetas,CO,81.54,broken clouds,3.3846,-74.0442,Hotel Doña Betty
678,Wajir,KE,84.38,broken clouds,1.7471,40.0573,Al-bustan Hotel And Restaurant.
683,La Palma,US,80.82,haze,33.8464,-118.0467,La Quinta Inn & Suites by Wyndham Buena Park
691,Sena Madureira,BR,81.27,overcast clouds,-9.0656,-68.6569,Hotel Central
697,Acari,PE,83.66,broken clouds,-15.4311,-74.6158,HOSPEDAJE XIMENA
698,Parana,AR,79.57,few clouds,-31.732,-60.5238,Howard Johnson by Wyndham Plaza Hotel Mayorazgo
706,Progreso,MX,78.91,scattered clouds,21.2833,-89.6667,Playa Linda Hotel
707,Kanigoro,ID,72.37,overcast clouds,-8.13,112.219,Musafer Villa ( Villa Erlin )
710,Uddiawan,PH,73.04,clear sky,16.5589,121.1512,Le Jardin
712,Mananara,MG,77.38,clear sky,-16.1667,49.7667,Chez Roger
717,George Town,MY,84.13,few clouds,5.4112,100.3354,Cititel Penang
719,Brokopondo,SR,83.01,overcast clouds,4.75,-55.1667,Matu Island
721,Ahuimanu,US,74.79,few clouds,21.4447,-157.8378,Paradise Bay Resort
724,Oranjestad,AW,78.01,overcast clouds,12.524,-70.027,Divi Village Golf & Beach Resort
725,Bin Qirdan,TN,81.45,scattered clouds,33.1378,11.2197,Hôtel Palace
733,Nieves,PH,76.62,clear sky,15.3274,120.9485,Bill's Inn
734,Kotri,PK,86.61,clear sky,25.366,68.3122,Drivers Running Room
735,Auki,SB,77.36,overcast clouds,-8.7676,160.7034,Auki Motel
736,Isla Mujeres,MX,80.65,few clouds,21.2311,-86.731,Hotel La Joya Isla Mujeres
737,Chopinzinho,BR,72.27,clear sky,-25.8558,-52.5233,Hotel Petisqueira
740,Dunmore Town,BS,72.5,clear sky,25.5,-76.65,Coral Sands Hotel
744,Morondava,MG,82.27,clear sky,-20.2833,44.2833,La Case Bambou
746,Nanga Eboko,CM,82.24,overcast clouds,4.6833,12.3667,Motel Papi Palace
749,Nsanje,MW,76.28,broken clouds,-16.92,35.262,Nsanje Discovery Lodge
750,Rawson,AR,77.97,scattered clouds,-43.3002,-65.1023,Hosteria Sampedro
755,Meadow Lake,US,73.62,broken clouds,34.8014,-106.5436,TumbleWeed RV Park
758,Palmas,BR,87.67,few clouds,-10.2128,-48.3603,Hotel Lago da Palma
759,Rustam,PK,76.95,clear sky,27.969,68.8048,PANHWAR HOUSE
761,Chimbote,PE,76.42,overcast clouds,-9.0853,-78.5783,Hotel Briliá
762,Santa Cruz,BO,84.25,broken clouds,-17.8,-63.1667,Aviador Hotel Boutique
763,Sao Miguel Do Araguaia,BR,88.84,broken clouds,-13.275,-50.1628,Hotel Executivo Palace
766,Suba,PH,83.88,few clouds,10.8438,121.0102,Jarnchi Pension House
769,San Vicente,AR,76.55,clear sky,-26.6167,-54.1333,Complejo Turístico Farelluk
773,Ichchapuram,IN,80.47,broken clouds,19.1167,84.7,Munna chowdhary
774,Manama,BH,73.18,clear sky,26.2154,50.5832,Al Safir Hotel
775,Zemio,CF,81.28,overcast clouds,5.0314,25.1361,OCHA Office
777,Saint-Joseph,RE,77.38,scattered clouds,-21.3667,55.6167,"""Plantation Bed and Breakfast"
779,Weston,US,80.02,clear sky,26.1004,-80.3998,Courtyard by Marriott Fort Lauderdale Weston
780,Acajutla,SV,88.09,broken clouds,13.5928,-89.8275,Laureles
782,Puerto El Triunfo,SV,89.69,broken clouds,13.2833,-88.55,Hotel Jardin
783,Imuris,MX,83.46,overcast clouds,30.7833,-110.8667,Hotel del Toro Hereford
785,San Patricio,US,87.89,clear sky,28.017,-97.5169,"Motel 6 Sinton, TX"
786,Makakilo City,US,75.52,clear sky,21.3469,-158.0858,Marriott's Ko Olina Beach Club
788,Camana,PE,74.16,scattered clouds,-16.6228,-72.7111,Hostal Morales
791,La Libertad,EC,82.06,light rain,-2.2333,-80.9,Playa Canela Hotel Boutique
793,Bucerias,MX,78.78,clear sky,20.75,-105.3333,Royal Decameron Complex - Puerto Vallarta
797,Fare,PF,81.84,overcast clouds,-16.7,-151.0167,Maitai Lapita Village Huahine
798,Trairi,BR,82.96,overcast clouds,-3.2778,-39.2689,janelas do mar
801,Caarapo,BR,81.37,broken clouds,-22.6342,-54.8222,Hotel Pousada Quinta do Sul
802,Cururupu,BR,82.96,overcast clouds,-1.8283,-44.8683,POUSADA TRAVÉS'CIA
805,Sungairaya,ID,79.39,broken clouds,0.7,108.9,Rumah Kuku Moimoi Shelly
809,Atrauli,IN,76.91,clear sky,28.0333,78.2833,RSS
814,Formiga,BR,83.82,broken clouds,-20.4644,-45.4264,Victor Plaza Hotel
815,Palora,EC,75.31,light rain,-1.7,-77.9333,Rancho grande
824,Kloulklubed,PW,79.3,moderate rain,7.0419,134.2556,Storyboard Beach Resort
825,Malakal,SS,85.87,broken clouds,9.5334,31.6605,Nile Palace Hotel
828,Rafaela,AR,76.98,clear sky,-31.2503,-61.4867,Parra Hotel & Suites
833,Kwinana,AU,72.81,overcast clouds,-32.25,115.7667,Rockingham Apartments
834,Robertsport,LR,81.66,overcast clouds,6.7533,-11.3686,Kwepunha Retreat
837,Pinheiro,BR,86.72,light rain,-2.5214,-45.0825,Solares Hotel
840,Valle De Allende,MX,75.72,scattered clouds,26.9333,-105.4,Hotel Meson de San Bartolome
841,Banjar,ID,77.25,broken clouds,-8.19,114.9675,The Hamsa Resort
842,Tiarei,PF,82.42,broken clouds,-17.5333,-149.3333,Le Rocher de Tahiti
845,Mto Wa Mbu,TZ,73.29,light rain,-3.35,35.85,Fanaka Safaris Campsite & Lodges
847,Bandundu,CD,80.49,overcast clouds,-3.3167,17.3667,Coja Color
849,Tarakan,ID,80.1,scattered clouds,3.3,117.6333,RedDoorz Syariah near Taman Berlabuh Tarakan
853,Posse,BR,89.37,scattered clouds,-14.0931,-46.3694,Pousada das Palmeiras
855,Konganapuram,IN,83.89,overcast clouds,11.5833,77.9167,KSPY ILLAM
858,Comal,US,85.66,clear sky,29.8169,-98.3003,Creek Hollow Cabins & RV Park
860,Ambilobe,MG,75.52,light rain,-13.2,49.05,Hôtel & Restaurant DIANA Ambilobe
862,Canchungo,GW,83.5,broken clouds,12.0672,-16.0333,Aparthotel Napalach
867,San Isidro,PE,76.5,few clouds,-12.1167,-77.05,Radisson Hotel Decapolis Miraflores
871,Pakxe,LA,82.99,broken clouds,15.1167,105.7833,Champasak Palace Hotel
872,Warangal,IN,85.82,broken clouds,18.0,79.5833,Capital O 66968 Haveli The Landmark
873,Copiapo,CL,83.23,clear sky,-27.3667,-70.3333,Antay Casino Hotel
875,Kiunga,PG,72.18,overcast clouds,-6.1219,141.2906,Airport Lodge Kiunga
877,Manaus,BR,79.29,light rain,-3.1019,-60.025,Manaus Hotéis Millennium
878,Ko Samui,TH,84.06,clear sky,9.5357,99.9357,The Passage
879,Lamu,KE,80.1,scattered clouds,-2.2717,40.902,Lamu House
880,Buchanan,LR,81.95,moderate rain,5.8808,-10.0467,Kamaneahn Hotel Inc
881,Paragominas,BR,83.75,broken clouds,-2.9667,-47.4833,INOVA
882,Biltine,TD,82.27,few clouds,14.5333,20.9167,Hôtel Trois Étoiles de Biltine
884,Belmonte,BR,83.61,broken clouds,-15.8631,-38.8828,Pousada Monte Carmelo O Pão
892,Campoverde,PE,85.69,overcast clouds,-8.4753,-74.8058,Hospedaje Coral's
894,Gizo,SB,79.66,light rain,-8.103,156.8419,Imagination Island
902,Teknaf,BD,75.7,few clouds,20.8624,92.3058,Forestry Guesthouse
906,Wanlaweyn,SO,85.1,light rain,2.6185,44.8938,GAASHAAN HOME
908,Badiraguato,MX,86.76,overcast clouds,25.3667,-107.5167,Restaurante La palma
913,Ibra,OM,79.68,clear sky,22.6906,58.5334,مزرعة راحة النفوس المنزفة
916,Guerrero Negro,MX,72.61,clear sky,27.9769,-114.0611,"Casa Laguna, Bed & Breakfast"
926,Palauig,PH,81.43,clear sky,15.435,119.9045,Alperi Botique Resort
928,Cap Malheureux,MU,80.47,clear sky,-19.9842,57.6142,Pereybere Hotel & Spa
929,Aquiraz,BR,80.69,overcast clouds,-3.9014,-38.3911,Pousada Rua Camurupim
933,Rosarito,MX,75.67,overcast clouds,32.3333,-117.0333,Hotel Festival Plaza Rosarito
936,Vanimo,PG,77.5,overcast clouds,-2.6741,141.3028,Vahmoneh Lodge Vanimo
937,Tabou,CI,83.37,broken clouds,4.423,-7.3528,hotêl doufoulougou
948,Sumbe,AO,79.74,broken clouds,-11.2061,13.8437,Hotel Ritz Sumbe
949,Rocha,UY,70.45,overcast clouds,-34.4833,-54.3333,Hotel Arrarte
952,Ambulu,ID,75.22,overcast clouds,-8.345,113.6058,Hotel Ambulu Jember
953,Majene,ID,77.99,broken clouds,-3.5403,118.9707,Kost Putri RABBANI
955,Juarez,MX,80.71,broken clouds,31.7333,-106.4833,Hotel Santa Fe
956,Les Cayes,HT,83.59,broken clouds,18.2,-73.75,Villa Orphee
957,Port Hedland,AU,82.45,few clouds,-20.3167,118.5667,"The Esplanade Hotel (Accommodation section closed for refurbishment - Bar, Restaurant & Functions remain open)"
958,Najran,SA,74.95,clear sky,17.4924,44.1277,محمد هادي ال فطيح
962,Howard Springs,AU,80.51,overcast clouds,-12.497,131.047,buffalo beach hostel
965,Pascagoula,US,75.25,clear sky,30.3658,-88.5561,Regency Inn
967,Sinnamary,GF,81.1,overcast clouds,5.3833,-52.95,ALETHEIA Appartement Sinnamary
968,Nakhon Ratchasima,TH,89.06,broken clouds,15.0,102.1667,U-Sabai Park Hotel & Resort
972,Bonthe,SL,83.1,broken clouds,7.5264,-12.505,Bonthe Holiday Village
974,Meiganga,CM,79.2,scattered clouds,6.5167,14.3,DFR HOUSE
979,Badami,IN,86.38,scattered clouds,15.915,75.6768,Clarks Inn Badami
982,Rodas,CU,82.6,light rain,22.3408,-80.5572,Hostal Casa Mario
983,Gairatganj,IN,82.44,clear sky,23.4202,78.2385,new garib namz road lines
985,Moerai,PF,80.65,overcast clouds,-22.4333,-151.3333,Le Manotel
987,Bom Jesus,BR,89.96,broken clouds,-9.0744,-44.3586,Hotel Brasão & Floricultura Bella Flor
988,Kyaikto,MM,80.49,few clouds,17.3,97.0167,နီလာ တည်းခိုခန်း
989,Dong Hoi,VN,79.54,scattered clouds,17.4833,106.6,Nam Long Hotel
991,Katherine,AU,79.12,overcast clouds,-14.4667,132.2667,Pine Tree Motel
994,Dhidhdhoo,MV,82.22,clear sky,6.8833,73.1,Dhidhoo beach
995,Prainha,BR,83.41,broken clouds,-1.8,-53.48,Casa Rocha
997,Bandarbeyla,SO,78.31,clear sky,9.4942,50.8122,JABIR HOTEL
998,Batticaloa,LK,79.66,clear sky,7.7102,81.6924,Grand Star Guest House
1001,Saraipali,IN,86.45,few clouds,21.3333,83.0,UTTAR KUMAR SIDAR
1003,Marsh Harbour,BS,73.49,few clouds,26.5412,-77.0636,Abaco Beach Resort
1006,Kimbe,PG,75.96,light rain,-5.5502,150.1429,Kimbe Bay Hotel
1008,Bhopal,IN,82.63,clear sky,23.2667,77.4,SPOT ON 63658 Shukla Lodge
1009,Hasilpur,PK,81.05,clear sky,29.7122,72.5553,"Masjid Noor, Tahir Colony, Purana Hasilpur"
1012,Altagracia De Orituco,VE,88.92,overcast clouds,9.8601,-66.3814,Posada Quinta Mi Refugio
1014,Luangwa,ZM,81.16,overcast clouds,-15.6167,30.4167,Gerasimos Safari Lodge
1015,Awbari,LY,71.24,few clouds,26.5921,12.7805,فندق أوباري
1018,Noumea,NC,79.0,broken clouds,-22.2763,166.4572,Hôtel Le Lagon
1019,Ubauro,PK,84.7,clear sky,28.1652,69.7289,Stamp Vendor
1026,Samana,DO,88.02,scattered clouds,19.2056,-69.3369,The Bannister - Hotel & Yacht Club
1031,Angoche,MZ,80.04,scattered clouds,-16.2325,39.9086,Guest House HESADA
1034,Moreira Sales,BR,76.95,overcast clouds,-24.0622,-53.0069,Casa Cristo Rei
1035,Begampur,IN,82.31,few clouds,22.7417,88.2433,Soumen Das
1040,Tomatlan,MX,89.8,few clouds,19.9333,-105.25,El Salvial
1041,Palimbang,PH,77.61,light rain,6.2106,124.1894,Felmar Beach resort
1051,Abu Dhabi,AE,77.02,clear sky,24.4667,54.3667,Beach Rotana
1052,Kovur,IN,78.64,few clouds,14.4833,79.9833,Hotel Yesh Park
1054,Kendari,ID,75.58,broken clouds,-3.945,122.4989,Hotel Wixel
1056,Tierranueva,MX,71.96,clear sky,21.6833,-100.5667,La nueva patria y libertad
1057,Bambui,BR,81.46,broken clouds,-20.0064,-45.9769,Paulinelli Palace Hotel
1058,Manakara,MG,77.36,light rain,-22.1333,48.0167,La Residence Manakara
1059,Rodeo,US,71.06,clear sky,38.033,-122.2669,Captain's Cottage
1067,Nacala,MZ,78.6,few clouds,-14.5428,40.6728,Nacala Plaza Business Design Hotel
1069,Loa Janan,ID,73.58,scattered clouds,-0.583,117.095,Kost bu jono
1070,Nileshwar,IN,81.73,scattered clouds,12.25,75.1,Neeleshwar Hermitage
1074,Hualmay,PE,75.79,overcast clouds,-11.0964,-77.6139,Hotel Villa Kitzia Huacho
1075,Manono,CD,71.6,broken clouds,-7.3,27.4167,Hotel hewa bora
1078,Buluang,PH,75.06,broken clouds,13.3068,123.3425,Enon Beach Resort
1079,Talara,PE,88.56,clear sky,-4.5772,-81.2719,Hostal Oro Negro
1081,Pochutla,MX,87.82,overcast clouds,15.7432,-96.4661,Hotel Posada San Jose
1084,Barkhan,PK,71.67,clear sky,29.8977,69.5256,Sardar
1092,Puerto Madero,MX,89.8,scattered clouds,14.7208,-92.4215,DEPARTAMENTOS LA ESTANCIA
1097,Roebourne,AU,83.34,scattered clouds,-20.7833,117.1333,Latitude20 Roebourne Village
1099,San Luis,AR,79.38,clear sky,-33.295,-66.3356,Huarpes Hotel
1103,Victoria Point,AU,70.16,broken clouds,-27.5833,153.3,Bay Retreat Motel
1104,Bom Jesus Do Galho,BR,88.39,scattered clouds,-19.8289,-42.3161,Hotel e Restaurante 'Seachegue'
1105,Ewa Beach,US,76.95,clear sky,21.3156,-158.0072,Base Lodging
1110,Resistencia,AR,87.1,few clouds,-27.4606,-58.9839,Niyat Urban Hotel
1111,Gawler,AU,70.25,clear sky,-34.6,138.7333,Eagle Foundry Bed & Breakfast
1112,Barra Do Garcas,BR,88.38,scattered clouds,-15.89,-52.2567,Pousada Tropical
1113,Nautla,MX,76.57,broken clouds,20.2167,-96.7833,Casa Blanca
1114,Mahibadhoo,MV,82.22,clear sky,3.7833,72.9667,Omadhoo Inn
1115,Funtua,NG,85.17,scattered clouds,11.5233,7.3081,Sani Jikan Mallam Hotel
1121,Ouesso,CG,79.52,overcast clouds,1.6136,16.0517,ABENIE Hotel
1124,Carrizal,VE,77.31,broken clouds,10.3499,-66.9863,Las Cocuizas
1126,Santiago Del Estero,AR,82.0,clear sky,-27.7951,-64.2615,Apartamentos Castelli 90
1127,Jamtara,IN,82.83,clear sky,23.95,86.8,SM LODGE AND ROOMS
1130,Chilca,PE,72.93,broken clouds,-12.5211,-76.7372,Playa Punta Yaya - Las Salinas
1131,Iquitos,PE,84.24,light rain,-3.7481,-73.2472,Cortez Malaga Techy Caroly
1132,Redding,US,73.62,clear sky,40.5865,-122.3917,Redding Inn & Suites
1136,Pitimbu,BR,81.19,light rain,-7.4706,-34.8086,Reserva do Abiaí
1138,Jardim,BR,81.95,broken clouds,-21.4803,-56.1381,Estancia Hotel - Jardim MS
1139,Maragogi,BR,81.55,broken clouds,-9.0122,-35.2225,Salinas do Maragogi All Inclusive Resort
1143,Bijapur,IN,87.1,broken clouds,16.8333,75.7,Rajdhani Lodge
1144,Ambad,IN,88.93,clear sky,19.6167,75.8,"चांगले नगर, अंबड शहर"
1145,Pimentel,PE,80.89,clear sky,-6.8367,-79.9342,Hotel Puerto del Sol
1147,Uklana Mandi,IN,75.88,clear sky,29.5023,75.8849,वर्मा पेन्टर उकलाना मण्डी
1148,Tivaouane,SN,80.94,few clouds,14.9515,-16.8129,SOUNOU KEUR
1156,Senador Jose Porfirio,BR,84.87,scattered clouds,-2.5908,-51.9542,Pousada Novo Horizonte
1158,Poso,ID,77.25,overcast clouds,-1.3959,120.7524,Hotel 77 Poso
1159,Lodwar,KE,86.41,broken clouds,3.1191,35.5973,Solmar Gracious Hotel
1168,Bundaberg,AU,70.21,overcast clouds,-24.85,152.35,Takalvan Motel
1172,Kutoarjo,ID,75.79,overcast clouds,-7.7169,109.9128,Massagus Hotel
1174,Monrovia,LR,74.97,overcast clouds,6.3005,-10.7969,Sunset Inn
1175,Tagusao,PH,80.15,few clouds,9.1924,117.8141,Green Villa beach resort
1177,Iralaya,HN,83.8,scattered clouds,15.0,-83.2333,Iglesia morava renovada
1180,Wewak,PG,79.41,overcast clouds,-3.5534,143.6268,In Wewak Boutique Hotel
1183,Vengurla,IN,79.38,scattered clouds,15.8667,73.6333,Golven Resort
1184,Atlantic Beach,US,77.13,clear sky,30.3344,-81.3987,One Ocean Resort and Spa
1185,Nortelandia,BR,80.89,overcast clouds,-14.4547,-56.8028,Hotel Karysmã
1186,Santa Fe,AR,80.02,light rain,-31.6333,-60.7,Conquistador Hotel
1188,Paka,MY,78.73,clear sky,4.6374,103.4368,RUMBIA RESORT VILLA Paka Terengganu
1192,Labuhan,ID,76.51,overcast clouds,-6.8844,112.2051,DoubleFAG
1193,Madang,PG,75.31,overcast clouds,-5.2246,145.7966,Comfort Inn Hotel
1194,Talca,CL,79.84,clear sky,-35.4333,-71.6667,Casa de Huespedes Marbargla
1195,Iquique,CL,72.61,clear sky,-20.2208,-70.1431,Backpacker`s Hostel Iquique
1198,Senanga,ZM,73.72,overcast clouds,-16.1167,23.2667,Zango lodge
1199,Jiazi,CN,73.31,broken clouds,22.8779,116.067,Hotel Jin Hao
1200,Shenzhen,CN,77.85,broken clouds,22.5455,114.0683,Grand Skylight
1201,Abeche,TD,83.62,few clouds,13.8292,20.8324,Assaleh Hamdan Haroune
1204,Mahmudabad,IN,76.77,clear sky,27.3,81.1167,"Haider Services, Baitul Anwar"
1208,Luganville,VU,78.06,overcast clouds,-15.5333,167.1667,The Espiritu Hotel
1211,Galle,LK,78.51,few clouds,6.0367,80.217,Amangalla
1212,Maroantsetra,MG,79.5,few clouds,-15.4333,49.7333,Annexe Vatsy Hôtel
1216,Miandrivazo,MG,79.07,moderate rain,-19.5167,45.4667,Hôtel Arc En Ciel Miandrivazo
1219,Dong Xoai,VN,74.55,overcast clouds,11.5333,106.9167,Khách Sạn Bình Phước - Khách Sạn Ngọc Lan
1220,Cairns,AU,74.07,broken clouds,-16.9167,145.7667,Mantra Trilogy Cairns
1222,Lufilufi,WS,80.38,light rain,-13.8745,-171.5986,Leuaina Beach Resort and Spa
1223,Cockburn Town,TC,78.42,scattered clouds,21.4612,-71.1419,Osprey Beach Hotel
1226,Prado,BR,83.03,few clouds,-17.3411,-39.2208,INN CORNER RIVER - PRADO - BAHIA - HOUSING AND HOTEL
1227,Tubmanburg,LR,82.74,light rain,6.8708,-10.8172,LITTLE WAY GUEST HOUSE
1231,Lahaina,US,71.8,broken clouds,20.8783,-156.6825,Lahaina Shores Beach Resort
1233,Jawhar,SO,84.09,broken clouds,2.7809,45.5005,hantiwadaag village part one
1235,Yarada,IN,84.52,mist,17.65,83.2667,Yarada Jungle Beach Resorts
1236,Puerto Cabezas,NI,85.96,scattered clouds,14.0351,-83.3888,Cabaña Caribe
1240,Caramay,PH,77.61,broken clouds,10.1815,119.236,Peace and Love Beach Club
1242,Mali,GN,85.95,few clouds,12.079,-12.2982,Hotel La Dame de Mali
1244,Road Town,VG,82.44,scattered clouds,18.4167,-64.6167,"ZINGARA 76ft Catamaran, full crew-all included"
1245,Kingman,US,80.89,clear sky,35.1894,-114.053,Rodeway Inn Kingman Route 66
1249,Ruwi,OM,84.0,clear sky,23.5996,58.5507,Al Falaj Hotel
1252,Payo,ID,72.57,broken clouds,-3.7508,103.6372,Mess keban agung
1253,Nizwa,OM,81.79,clear sky,22.9333,57.5333,Orient Apartments
1261,Kilindoni,TZ,83.46,clear sky,-7.9139,39.6668,Bustani B&B
1262,Manicore,BR,85.44,moderate rain,-5.8092,-61.3003,Hotel Durval
1266,San Juan,AR,81.59,clear sky,-31.5375,-68.5364,Hotel Provincial
1267,Lamar,US,72.64,clear sky,33.6668,-95.5836,Kings Inn Paris TX
1269,Port Moresby,PG,74.62,few clouds,-9.4431,147.1797,Lamana Hotel (Port Moresby)
1271,Lages,BR,71.17,clear sky,-27.8161,-50.3261,Hotel Le CanarD Lages
1274,Tucuman,AR,80.6,clear sky,-26.8241,-65.2226,Dallas Hotel Tucuman
1280,Santiago,CL,83.28,clear sky,-33.4569,-70.6483,Hotel Panamericano
1281,Actopan,MX,70.52,scattered clouds,20.2667,-98.9333,QUINTA RIVERA HOTEL
1284,Praxedis Guerrero,MX,74.66,broken clouds,31.3667,-106.0167,Congregación placitas de Otero
1285,Shakawe,BW,74.57,few clouds,-18.3667,21.85,Ditlhapi Guest House
1287,Mananjary,MG,77.7,light rain,-21.2167,48.3333,Vahiny Lodge
1292,Manadhoo,MV,82.42,clear sky,5.7667,73.3833,Bon Abri maldives
1296,Altamira,BR,89.69,scattered clouds,-3.2033,-52.2064,Requinte Hotel
1298,La Asuncion,VE,80.29,overcast clouds,11.0333,-63.8628,Colinas de Matasiete
1308,Miami,US,80.02,clear sky,25.7743,-80.1937,Miami Sun Hotel- Downtown/Port of Miami
1311,Yazman,PK,84.74,clear sky,29.1212,71.7446,Jamal sons showroom
1312,Sesheke,ZM,74.93,overcast clouds,-17.4759,24.2968,Protea Hotel by Marriott Zambezi River Lodge
1315,Montepuez,MZ,71.64,scattered clouds,-13.1256,38.9997,PembaAparthotel
1316,Praia,CV,73.94,few clouds,14.9215,-23.5087,LT Aparthotel
1320,Salinopolis,BR,81.43,overcast clouds,-0.6136,-47.3561,Salinas Park Resort Maçarico AP101
1321,Taitung,TW,75.74,few clouds,22.7583,121.1444,Taitung Bali Suites Hotel
1322,Cukai,MY,78.75,clear sky,4.25,103.4167,OYO 90038 Dalyla Inn Chalet
1323,San Antonio,US,89.15,clear sky,29.4241,-98.4936,Drury Plaza Hotel San Antonio Riverwalk
1324,Eirunepe,BR,87.96,overcast clouds,-6.6603,-69.8736,Atrás de você
1325,Crestview,US,74.43,clear sky,30.7621,-86.5705,"Holiday Inn Express & Suites Crestview South I-10, an IHG Hotel"
1327,Tuy Hoa,VN,76.55,clear sky,13.0833,109.3,CenDeluxe Hotel Tuy Hoa
1328,El Alto,PE,85.66,overcast clouds,-4.2714,-81.2147,Black Marlin Restaurant & Hospedaje
1330,Kalmunai,LK,79.21,few clouds,7.4167,81.8167,VS Villa
1333,Cozumel,MX,81.0,broken clouds,20.5083,-86.9458,Cozumel Palace® All Inclusive Resort
1336,Galesong,ID,77.02,scattered clouds,-5.3166,119.3661,Sapriadi Appy
1337,Houma,US,79.0,clear sky,29.5958,-90.7195,Courtyard by Marriott Houma
1339,Trinidad,BO,78.78,broken clouds,-14.8333,-64.9,Hotel Piesta
1344,Sinazongwe,ZM,78.53,light rain,-17.2614,27.4618,Lakeview Lodge
1345,Tucumcari,US,76.95,clear sky,35.1717,-103.725,"Holiday Inn Express & Suites Tucumcari, an IHG Hotel"
1352,Davila,PH,76.98,clear sky,18.4726,120.5763,Blue Ridge Beach Resort
1354,Yaring,TH,78.87,clear sky,6.8662,101.3689,สถานที่จัดงานแต่ง SOFEE & DORN
1355,Kieta,PG,76.82,overcast clouds,-6.2167,155.6333,Uruna Bay Retreat
1356,Booue,GA,78.37,light rain,-0.0921,11.9385,Splendeur de l'équateur
1358,Tibagi,BR,77.13,overcast clouds,-24.5094,-50.4136,Far View Inn
1363,Kihei,US,71.83,scattered clouds,20.785,-156.4656,Maui Sunset
1364,Kroya,ID,77.81,overcast clouds,-7.6331,109.2461,RUSTANTO Fam
1365,Antalaha,MG,78.06,few clouds,-14.9003,50.2788,Hotel Vitasoa
1369,Sagua La Grande,CU,77.99,moderate rain,22.8067,-80.0756,Hotel Telégrafo
1370,Tsiroanomandidy,MG,72.34,light rain,-18.7667,46.0333,Hotel Ravinala
1371,Toumodi,CI,80.69,light rain,6.5613,-5.0158,Hotel Akanza
1374,Quezon,PH,72.34,overcast clouds,7.7303,125.0989,LIBRE INN
1375,Aloleng,PH,82.04,few clouds,16.1307,119.7824,Steve Walden and Emma Sison-Walden Residence
1377,Ipixuna,BR,82.31,light rain,-1.7625,-48.8043,Chalé do Mato
1382,Buta,CD,82.2,overcast clouds,2.7858,24.73,HOTEL BISO NA BISO
1384,Mount Pleasant,US,71.01,clear sky,32.7941,-79.8626,Best Western Patriots Point
1385,Angleton,US,84.33,clear sky,29.1694,-95.4319,La Quinta Inn & Suites by Wyndham Angleton
1389,Vieux-Habitants,GP,83.77,broken clouds,16.0589,-61.7659,Gîtes Dardanelle
1392,Kudahuvadhoo,MV,81.9,clear sky,2.6708,72.8944,Niyama Private Islands Maldives
1393,Hue,VN,80.71,few clouds,16.4667,107.6,Saigon Morin Hotel
1396,Boca Do Acre,BR,80.83,light rain,-8.7522,-67.3978,Hotel Sao Pedro
1397,Nabire,ID,75.11,overcast clouds,-3.3667,135.4833,Hotel Nusantara I
1403,Balabac,PH,81.3,few clouds,7.9868,117.0645,Batalla’s Lodging House
1404,Bosaso,SO,77.77,clear sky,11.2842,49.1816,Red Sea Hotel
1405,Tarauaca,BR,81.59,overcast clouds,-8.1614,-70.7656,Flat Temporada
1411,Japura,ID,75.61,clear sky,-0.3167,102.35,Rumah mbah Jamah
1413,Nova Vicosa,BR,84.72,scattered clouds,-17.8919,-39.3719,Pousada Porto do Sol
1416,Matara,LK,77.49,clear sky,5.9485,80.5353,Amaloh Boutique Resort
1418,San Ignacio,BZ,78.94,clear sky,17.1561,-89.0714,Rainforest Haven Inn
1424,Baracoa,CU,80.4,broken clouds,20.3467,-74.4958,Hostal Rio Miel
1428,Arlit,NE,87.08,broken clouds,18.7369,7.3853,Case de Passage De la Prefecture
1435,Ibirama,BR,87.31,scattered clouds,-27.0569,-49.5178,Hotel Soralete - Grupo Rosablue
1436,Alugan,PH,79.29,overcast clouds,12.2188,125.4808,JM Lodge
1437,Phuntsholing,BT,73.0,few clouds,26.8516,89.3884,Hotel White House
1438,Dickinson,US,84.36,clear sky,29.4608,-95.0513,Hampton Inn & Suites Houston/League City
1443,Mankera,PK,82.29,clear sky,31.3866,71.4407,Haider Wood Supplier
1445,Olinda,BR,83.93,scattered clouds,-8.0089,-34.8553,Flat Quatro Rodas Olinda
1447,Vryburg,ZA,71.92,scattered clouds,-26.9566,24.7284,The Times Premier Lodge
1450,Kot Samaba,PK,82.98,clear sky,28.5522,70.4684,Nadeem Sweet Mart
1457,Hansi,IN,77.0,clear sky,29.1,75.9667,Green Valley Lodge
1459,Malindi,KE,80.78,overcast clouds,-3.2175,40.1191,African House Resort
1460,Huarmey,PE,76.33,overcast clouds,-10.0681,-78.1522,Hotel Miramar
1461,Odweyne,SO,71.31,few clouds,9.4092,45.064,Eng Hiirey House
1465,Santa Rosa,PH,83.1,few clouds,14.3122,121.1114,Erlyn’s Sta Rosa City Home
1467,Quelimane,MZ,80.55,scattered clouds,-17.8786,36.8883,Hotel Flamingo
1471,Badin,PK,84.61,clear sky,24.656,68.8384,Muhammad Bin Qasim Boys Hostel Badin campus
1472,Taltal,CL,70.07,clear sky,-25.4,-70.4833,Residencial Karime
1474,Sibolga,ID,75.97,clear sky,1.7427,98.7792,Hotel Syariah CN Darussalam
1477,West Odessa,US,82.4,clear sky,31.8424,-102.4988,Corporate Mobile Housing
1482,Veraval,IN,78.76,clear sky,20.9,70.3667,Lords Inn Somnath
1485,Andes,CO,73.98,overcast clouds,5.6561,-75.8788,Café del Jardín - Alojamiento Rural
1487,Aracati,BR,81.21,overcast clouds,-4.5617,-37.7697,Motel Pousada Milleniun - Aracati-CE
1489,Puerto Narino,CO,83.75,overcast clouds,-3.7703,-70.3831,Eware Refugio Amazonico
1492,Tefe,BR,77.11,moderate rain,-3.3542,-64.7114,Aracati Hotel
1493,Culaba,PH,78.96,overcast clouds,11.6578,124.5425,Junrey Veraya
1494,Murud,IN,80.06,broken clouds,18.3258,72.965,On Point Plaza
1498,Lobo,PH,78.94,scattered clouds,13.6481,121.2112,Submarine Garden Beach Resort
1500,Natal,BR,84.42,broken clouds,-5.795,-35.2094,Villa Park Hotel | Natal
1504,Matamoros,MX,73.51,broken clouds,25.5333,-103.25,Quinta Belem
1508,Atitalaquia,MX,70.65,broken clouds,20.0667,-99.2167,Hotel San Javier
1509,Mizan Teferi,ET,71.26,overcast clouds,6.9833,35.5833,Hotel Salayish - ሳላይሽ ሆቴል
1514,Puerto Ayacucho,VE,83.64,light rain,5.6639,-67.6236,Posada Turistica Manapiare
1515,Kampot,KH,78.85,clear sky,10.6167,104.1833,Two Moons Hotel
1521,Bay Saint Louis,US,78.87,clear sky,30.3088,-89.33,The Abode Guest House
1522,Samarai,PG,81.64,overcast clouds,-10.6167,150.6667,Nuli Sapi
1526,Kinkala,CG,76.24,light rain,-4.3614,14.7644,Hotel la Pepeche Kinkala
1528,Villarrica,PY,76.51,clear sky,-25.75,-56.4333,Mansión Reljuv Tours SA
1533,Sao Felix Do Xingu,BR,88.03,scattered clouds,-6.6447,-51.995,Rio Xingu Camping
1534,Conakry,GN,84.27,haze,9.538,-13.6773,Riviera Royal Hotel
1538,Gold Coast,AU,70.25,light rain,-28.0,153.4333,Mantra Towers of Chevron Surfers Paradise
1544,Salta,AR,75.79,few clouds,-24.7859,-65.4117,Hotel Alejandro I
1545,Quang Ngai,VN,74.86,clear sky,15.1167,108.8,Central Hotel
1548,Caucaia,BR,80.55,broken clouds,-3.7361,-38.6531,M.O.S. Logística - Filial Fortaleza
1549,Kisangani,CD,78.76,broken clouds,0.5167,25.2,Grand Ramela Hotel
1554,Maturin,VE,88.84,overcast clouds,9.75,-63.1767,Hotel Residencial La Pichincha
1558,Aden,YE,79.12,clear sky,12.7794,45.0367,Sama Emirate Hotel
1560,Barabai,ID,74.34,light rain,-2.5833,115.3833,HOTEL BOURAQ INDAH PERMAI
1561,Yola,NG,89.33,clear sky,9.2,12.4833,Muna Hotel
1564,Inongo,CD,77.74,overcast clouds,-1.95,18.2667,Hotel Du Lac
1565,Puerto Suarez,BO,75.76,broken clouds,-18.95,-57.8,Hotel casa real
1570,Gladstone,AU,71.53,overcast clouds,-23.85,151.25,Highpoint International Hotel
1573,Weligama,LK,76.86,clear sky,5.9667,80.4167,Weligama Bay Resort
1574,Igatpuri,IN,76.23,clear sky,19.7,73.55,Mystic Valley Spa Resort
1579,Mariakani,KE,82.49,broken clouds,-3.8633,39.4736,The County Luxury Comfort Hotels Ltd
1582,Vieques,PR,85.89,scattered clouds,18.425,-65.8329,"The St. Regis Bahia Beach Resort, Puerto Rico"
1583,Cocorit,MX,82.74,overcast clouds,27.5833,-109.9667,Kaba Motel
1590,Kaabong,UG,70.99,light rain,3.4836,34.1492,Rock Motel Ltd
1595,Ocos,GT,89.78,scattered clouds,14.5094,-92.1933,Auto Hotel El Soñador
1597,Dakar,SN,81.48,clear sky,14.6937,-17.4441,Novotel Dakar
1598,Pirenopolis,BR,88.29,broken clouds,-15.8525,-48.9592,Hotel Pousada Mandala
1599,Formosa Do Rio Preto,BR,85.64,overcast clouds,-11.0483,-45.1931,Porto Center Hotel
1600,Los Cedrales,PY,80.89,clear sky,-25.65,-54.7,Piro'y Eco Turismo
1603,Mazinde,TZ,76.14,overcast clouds,-4.8,38.2167,Irente View Cliff Lodge And Campsite
1605,Anuppur,IN,73.81,clear sky,23.1,81.6833,PWD vishramgruh GUEST HOUSE
1609,Phangnga,TH,78.84,clear sky,8.4509,98.5298,Sunimit Mansion
1616,Bontang,ID,77.79,few clouds,0.1333,117.5,KOPKAR Hotel Bintang Sintuk
1618,Wanning,CN,77.22,broken clouds,18.8003,110.3967,Paradise Hotel
1622,Takoradi,GH,82.31,overcast clouds,4.8845,-1.7554,Raybow International Hotel
1623,Quatis,BR,79.77,overcast clouds,-22.4072,-44.2581,Hotel Colonial
1626,Coruripe,BR,83.1,clear sky,-10.1256,-36.1756,Pousada e Hotel Litoral Sul
1627,General Roca,AR,83.26,clear sky,-39.0333,-67.5833,Hotel El Recreo
1628,Satkhira,BD,78.49,clear sky,22.7167,89.1,kaligonj Mass
1631,Porbandar,IN,80.02,clear sky,21.6422,69.6093,Lords Inn Porbandar
1637,Kapit,MY,73.63,overcast clouds,2.0167,112.9333,Hotel Meligai Kapit
1639,Avenal,US,73.54,overcast clouds,36.0041,-120.129,Lodge House Inn The
1641,Kaohsiung,TW,80.55,broken clouds,22.6163,120.3133,御宿商旅-中山館
1642,Gwadar,PK,78.22,clear sky,25.1216,62.3254,Sadaf Resort
1643,Nilopolis,BR,89.31,few clouds,-22.8075,-43.4139,Hotel Premier
1645,Ascension,US,80.2,clear sky,30.2169,-90.9001,Highland Inn
1647,Neuquen,AR,80.49,clear sky,-38.9516,-68.0591,Hotel del Comahue
1651,Novo Aripuana,BR,85.75,moderate rain,-5.1206,-60.3797,Hotel Ezequiel
1662,Cumana,VE,80.51,overcast clouds,10.4635,-64.1775,Posada Acuarela Los Roques
1663,Yacuiba,BO,80.64,clear sky,-22.038,-63.6797,Hotel Monumental
1667,Buin,CL,73.44,clear sky,-33.7333,-70.75,Paihuen
1673,Piranhas,BR,86.99,overcast clouds,-16.4269,-51.8222,Planalto Hotel
1675,Kongolo,CD,72.81,overcast clouds,-5.3833,27.0,GUEST HOUSE OASIS
1679,Sabang,ID,83.14,few clouds,5.8933,95.3214,Hotel Citra
1680,Contamana,PE,87.78,broken clouds,-7.3333,-75.0167,Shiringal Touristic Park
1681,Remanso,BR,87.64,broken clouds,-9.6179,-42.0831,Hotel Mangueira
1687,Bourail,NC,71.92,overcast clouds,-21.5667,165.4833,Motel Allamanda
1688,Coari,BR,83.41,overcast clouds,-4.085,-63.1414,Dellrey Hotel Center
1694,San Andres,CO,86.02,few clouds,12.5847,-81.7006,Hotel Arena Blanca
1696,Srandakan,ID,75.24,overcast clouds,-7.9386,110.2506,Puri Brata
1699,Gbarnga,LR,80.71,few clouds,6.9956,-9.4722,Passion Hotel 2
1700,Guadalupe,MX,88.63,few clouds,25.6833,-100.25,Fiesta Inn Monterrey Fundidora
1703,Jiwani,PK,77.83,clear sky,25.05,61.7417,Al Mumtaz Transport Jiwani
1704,Akyab,MM,78.96,few clouds,20.15,92.9,Hotel Memory
1706,Varkkallai,IN,83.98,broken clouds,8.7341,76.7067,Hindustan Beach Retreat
1713,Methala,IN,80.6,few clouds,10.2166,76.2166,Style Homes Holiday Inn
1714,Black River,JM,84.27,broken clouds,18.0264,-77.8487,Idlers' Rest Beach Hotel
1719,Mabaruma,GY,82.4,broken clouds,8.2,-59.7833,Monty Brooms Guest House
1725,Indi,IN,88.65,scattered clouds,17.1667,75.9667,Shree Gurubhojanalaya
1730,Isiro,CD,74.97,overcast clouds,2.7739,27.616,Guest House Hewa Bora
1731,Canutama,BR,82.51,moderate rain,-6.5339,-64.3831,Hotel Jhennifer
1732,Phan Thiet,VN,78.08,clear sky,10.9333,108.1,Hotel Saigon-PT
1734,Minab,IR,76.98,clear sky,27.1467,57.0801,Bam campground
1736,Darbhanga,IN,74.46,clear sky,26.1667,85.9,Arvind and Agarwal Hotel
1738,Kuching,MY,75.42,scattered clouds,1.55,110.3333,Hilton Kuching
1740,Tayoltita,MX,86.95,overcast clouds,24.0833,-105.9333,Hotel Rivera Tayoltita
1743,Hervey Bay,AU,73.26,light rain,-25.2986,152.8535,Shelly Bay Resort
1747,Moctezuma,MX,87.35,broken clouds,29.8,-109.6667,Hotel Lobohombo
1748,Numan,NG,89.35,broken clouds,9.4667,12.0333,Zangun Motel
1750,Sawakin,SD,72.03,clear sky,19.1059,37.3321,فندق الدويم
1754,Kadhan,PK,83.5,clear sky,24.481,68.9859,ڳوٺ چوڌري جلال الدين جٽ
1758,Cordoba,AR,83.43,clear sky,-31.4135,-64.1811,Hotel Sussex
1765,Balsas,BR,88.41,broken clouds,-7.5325,-46.0356,Novo Hotel
1768,Ha Giang,VN,73.81,clear sky,22.8333,104.9833,Truong Xuan Resort
1771,Mangrol,IN,78.33,clear sky,21.1167,70.1167,Hotel The Royal Honours
1776,Hilton Head Island,US,72.99,clear sky,32.2163,-80.7526,Disney’s Hilton Head Island Resort
1777,Chapada Dos Guimaraes,BR,73.06,overcast clouds,-15.4606,-55.7497,Pousada Morro Dos Ventos
1778,Puerto Baquerizo Moreno,EC,79.79,broken clouds,-0.9,-89.6,Hotel los Algarrobos
1780,Miraflores,MX,72.36,few clouds,19.2167,-98.8083,Hotel Mansión
1782,Sawai Madhopur,IN,76.5,clear sky,25.9833,76.3667,Sawai Madhopur Lodge – IHCL SeleQtions
1783,Pemba,MZ,83.1,few clouds,-12.974,40.5178,Guesthouse Samotina
1786,Corrente,BR,84.67,overcast clouds,-3.7367,-43.3394,Chapadinhense Hotel
1788,Kampong Chhnang,KH,84.88,overcast clouds,12.1667,104.55,ផ្ទះសំណាក់ហេងស្រស់
1792,Upata,VE,81.97,overcast clouds,8.0086,-62.3989,Posada Villa Nela
1793,Pangai,TO,78.91,scattered clouds,-19.8,-174.35,Ha'apai Beach Resort
1794,Coxquihui,MX,79.29,few clouds,20.1833,-97.5833,Hotel Villas Zozocolco
1796,Guasave,MX,83.05,overcast clouds,25.5667,-108.45,El Sembrador Hotel
1797,Khuzdar,PK,72.91,clear sky,27.7384,66.6434,jhalwan Rent A Car Compny Moola Chotok
1799,Mandleshwar,IN,89.22,clear sky,22.1833,75.6667,Mahalaxmi Bhojnalay
1801,Yenagoa,NG,83.41,broken clouds,4.9247,6.2642,Aridolf Resort Wellness and Spa
1803,Gualeguay,AR,76.95,few clouds,-33.1416,-59.3097,Faro del Lago
1806,Punta De Bombon,PE,72.0,scattered clouds,-17.1717,-71.7931,Hotel Bedregal
1809,Rincon,US,72.86,clear sky,32.296,-81.2354,Days Inn Rincon
1812,San Joaquin,US,72.36,clear sky,37.9333,-121.3011,University Plaza Waterfront Hotel
1813,Yanam,IN,76.21,overcast clouds,16.7333,82.2167,The Regency Hotel
1815,Conceicao Da Barra,BR,82.08,overcast clouds,-18.5933,-39.7322,Cricaré Praia Hotel
1822,Socorro,US,82.9,broken clouds,31.6546,-106.3033,guarderia imss papalote
1823,Tebingtinggi,ID,76.05,scattered clouds,3.3285,99.1625,Hotel Malibou tebing tinggi
1824,San-Pedro,CI,79.57,moderate rain,4.7485,-6.6363,Hotel Maria
1825,Puerto Leguizamo,CO,77.29,overcast clouds,-0.1934,-74.7819,la casona de juancho
1827,Manoel Urbano,BR,85.46,overcast clouds,-8.8389,-69.2597,Baixada Beira Rio
1830,Nueva Gerona,CU,80.02,clear sky,21.8833,-82.8,Villa Gerona
1833,Beira,MZ,80.69,scattered clouds,-19.8436,34.8389,Beira Terrace Hotel
1838,Det Udom,TH,89.94,overcast clouds,14.906,105.0784,Chatsuda Resort
1847,Martapura,ID,78.89,overcast clouds,-3.4167,114.85,Montana Hotel Syariah
1851,Iberia,US,79.97,clear sky,29.9502,-91.7507,back to back rv park
1852,Prieska,ZA,73.94,clear sky,-29.6641,22.7474,Avenue GuestHouse
1853,Lorica,CO,87.78,overcast clouds,9.2365,-75.8135,Hostal Raíces del Sabor
1854,Chirongui,YT,82.33,light rain,-12.9319,45.1483,La Villa Mahatsara
1862,Mazamari,PE,74.17,overcast clouds,-11.3258,-74.5308,Hospedaje Ratto
1864,Carlagan,PH,79.92,clear sky,14.975,122.0456,Cabatagan Island
1866,Morrope,PE,80.71,overcast clouds,-6.5417,-80.0111,CASA WAYRA HOTEL
1867,Ferkessedougou,CI,89.62,broken clouds,9.6,-5.2,Hotel Chateau
1869,Pontes E Lacerda,BR,80.71,overcast clouds,-15.2261,-59.3353,Hotel Bressan
1870,Sirsa,IN,75.99,clear sky,29.5333,75.0167,OYO 48542 Hotel Capital
1872,Pandamatenga,BW,72.36,broken clouds,-18.5278,25.627,Wildtrack Safaris Eco Lodge
1877,Hoi An,VN,76.96,few clouds,15.8794,108.335,Belle Maison Hadana Hoi An managed by H&K Hospitality
1879,Ankpa,NG,84.63,broken clouds,7.3706,7.6253,AA Suites
1880,Coxim,BR,83.77,broken clouds,-18.5067,-54.76,Hotel Avenida
1881,Licheng,CN,70.16,overcast clouds,23.2955,113.8284,Xincheng Tourism Industry
1882,Atambua,ID,72.41,overcast clouds,-9.1061,124.8925,Kost Alfa Flat
1884,Uruguaiana,BR,73.33,broken clouds,-29.7547,-57.0883,Fares Turis Hotel
1886,Kipini,KE,82.69,clear sky,-2.5257,40.5262,Delta Sea Mall
1887,Kantang,TH,77.36,clear sky,7.4054,99.5156,Reng Ta Chai Boutique HomeStay
1888,Fort Carson,US,74.28,scattered clouds,38.7375,-104.7889,Cheyenne Mountain Estates
1894,Natagaima,CO,87.58,broken clouds,3.6206,-75.0941,Mi Hotel El Gran Palacio- Nury
1896,Catuday,PH,80.89,clear sky,16.2923,119.8062,Benjie's Kubo & Cottages
1897,Cabo Rojo,PR,83.21,few clouds,18.0866,-67.1457,Hotel Perichi's
1900,Emilio Carranza,MX,76.01,overcast clouds,19.9711,-96.6114,Hotel Carranza Inn
1901,Warri,NG,83.37,overcast clouds,5.5167,5.75,BON Hotel Delta
1902,Clearwater,US,77.04,clear sky,27.9659,-82.8001,Residence Inn by Marriott Clearwater Downtown
1904,Puerto Colombia,CO,87.89,scattered clouds,10.9878,-74.9547,Hotel El Emigrante
1911,Araguari,BR,86.29,overcast clouds,-18.6472,-48.1872,Big Executive Hotel - Araguari MG
1912,Kannauj,IN,77.07,clear sky,27.0546,79.922,Hotel M L Palace
1917,San Ramon De La Nueva Oran,AR,89.42,clear sky,-23.1322,-64.326,Hotel Residencial Centro
1920,Karur,IN,82.27,clear sky,10.95,78.0833,Hotel Valluvar
1921,Paracuru,BR,80.11,moderate rain,-3.41,-39.0306,Hotel Vento Brasil
1926,Mercedes,AR,72.64,clear sky,-34.6515,-59.4307,Posada del Inti Centro
1928,Muvattupula,IN,80.35,few clouds,9.9667,76.5833,Indian Summer House
1936,Lafayette,US,77.99,clear sky,30.2335,-92.0668,"Drury Inn & Suites Lafayette, LA"
1937,Itarema,BR,83.07,overcast clouds,-2.9248,-39.9167,"Sea Lounge! Bar, Club & Restaurant"
